{"type":"FeatureCollection","features":[{"type":"Feature","properties":{},"geometry":{"type":"Polygon","coordinates":[[[-59.49920654296875,3.395532633836531],[-59.49920654296875,3.9903006834714274],[-58.737030029296875,3.9903006834714274],[-58.737030029296875,3.395532633836531],[-59.49920654296875,3.395532633836531]]]}},{"type":"Feature","properties":{"marker-color":"#7e7e7e","marker-size":"medium","marker-symbol":"","name":"North Rupununi"},"geometry":{"type":"Point","coordinates":[-59.149017333984375,3.7053003399435]}},{"type":"Feature","properties":{"marker-color":"#7e7e7e","marker-size":"medium","marker-symbol":""},"geometry":{"type":"Point","coordinates":[-57.568359375,4.12180638614224]}},{"type":"Feature","properties":{"marker-color":"#7e7e7e","marker-size":"medium","marker-symbol":"","place":"country","name":"Brazil"},"geometry":{"type":"Point","coordinates":[-60.457763671875,3.908098881894123]}},{"type":"Feature","properties":{"marker-color":"#7e7e7e","marker-size":"medium","marker-symbol":"","place":"mountain range","name":"Pakaraima Mountains"},"geometry":{"type":"Point","coordinates":[-59.82330322265624,4.631179340411012]}},{"type":"Feature","properties":{"marker-color":"#7e7e7e","marker-size":"medium","marker-symbol":"","place":"mountain range","name":"Kanuku Mountains"},"geometry":{"type":"Point","coordinates":[-59.3756103515625,3.1843944923387464]}},{"type":"Feature","properties":{"marker-color":"#7e7e7e","marker-size":"medium","marker-symbol":"","place":"country","name":"Venezuela"},"geometry":{"type":"Point","coordinates":[-60.10620117187501,8.265855052877221]}},{"type":"Feature","properties":{"marker-color":"#7e7e7e","marker-size":"medium","marker-symbol":"","place":"city","name":"Georgetown"},"geometry":{"type":"Point","coordinates":[-58.15612792968749,6.8037168157485715]}},{"type":"Feature","properties":{"marker-color":"#7e7e7e","marker-size":"medium","marker-symbol":"","place":"town","name":"Linden"},"geometry":{"type":"Point","coordinates":[-58.32572937011719,5.999557502110834]}},{"type":"Feature","properties":{"marker-color":"#7e7e7e","marker-size":"medium","marker-symbol":"","place":"town","name":"New Amsterdam"},"geometry":{"type":"Point","coordinates":[-57.518577575683594,6.241926901343499]}},{"type":"Feature","properties":{"marker-color":"#7e7e7e","marker-size":"medium","marker-symbol":"","place":"country","name":"Guyana"},"geometry":{"type":"Point","coordinates":[-59.2108154296875,5.572249801113911]}},{"type":"Feature","properties":{"marker-color":"#7e7e7e","marker-size":"medium","marker-symbol":"","place":"town","name":"Santa Elena de Uairen"},"geometry":{"type":"Point","coordinates":[-61.10801696777344,4.601578263577349]}},{"type":"Feature","properties":{"marker-color":"#7e7e7e","marker-size":"medium","marker-symbol":"","place":"city","name":"Boa Vista"},"geometry":{"type":"Point","coordinates":[-60.67817687988281,2.8223442468940902]}},{"type":"Feature","properties":{"marker-color":"#7e7e7e","marker-size":"medium","marker-symbol":"","place":"town","name":"Lethem"},"geometry":{"type":"Point","coordinates":[-59.798240661621094,3.3759973947226416]}},{"type":"Feature","properties":{"marker-color":"#7e7e7e","marker-size":"medium","marker-symbol":"","water":"ocean","name":"Atlantic Ocean"},"geometry":{"type":"Point","coordinates":[-57.293701171875,7.917793352627924]}},{"type":"Feature","properties":{"marker-color":"#7e7e7e","marker-size":"medium","marker-symbol":"","place":"river","name":"Essequibo River"},"geometry":{"type":"Point","coordinates":[-58.56262207031251,6.197898978045212]}},{"type":"Feature","properties":{"marker-color":"#7e7e7e","marker-size":"medium","marker-symbol":"","water":"river","name":"Demerara River"},"geometry":{"type":"Point","coordinates":[-58.2989501953125,6.3180284458589995]}},{"type":"Feature","properties":{"marker-color":"#7e7e7e","marker-size":"medium","marker-symbol":"","water":"river","name":"Potaro River"},"geometry":{"type":"Point","coordinates":[-58.95538330078125,6.02311650923819]}},{"type":"Feature","properties":{"marker-color":"#7e7e7e","marker-size":"medium","marker-symbol":"","water":"river","name":"Rewa River"},"geometry":{"type":"Point","coordinates":[-58.70956420898437,3.686114247391014]}},{"type":"Feature","properties":{"marker-color":"#7e7e7e","marker-size":"medium","marker-symbol":"","water":"river","name":"Rupununi River"},"geometry":{"type":"Point","coordinates":[-58.97598266601563,3.8656247834774597]}},{"type":"Feature","properties":{"marker-color":"#7e7e7e","marker-size":"medium","marker-symbol":"","water":"river","name":"Rio Branco"},"geometry":{"type":"Point","coordinates":[-60.83953857421876,2.3147387304897524]}},{"type":"Feature","properties":{"marker-color":"#7e7e7e","marker-size":"medium","marker-symbol":"","water":"river","name":"Mazaruni River"},"geometry":{"type":"Point","coordinates":[-59.40582275390625,6.618228998650684]}},{"type":"Feature","properties":{"marker-color":"#7e7e7e","marker-size":"medium","marker-symbol":"","water":"river","name":"Corentyne River"},"geometry":{"type":"Point","coordinates":[-57.21130371093749,5.509373574853506]}},{"type":"Feature","properties":{"marker-color":"#7e7e7e","marker-size":"medium","marker-symbol":"","name":"South Rupununi"},"geometry":{"type":"Point","coordinates":[-59.556884765625,2.657737790139801]}},{"type":"Feature","properties":{"marker-color":"#7e7e7e","marker-size":"medium","marker-symbol":"","place":"mountain","name":"Mount Roraima"},"geometry":{"type":"Point","coordinates":[-60.739288330078125,5.196261752901789]}},{"type":"Feature","properties":{"marker-color":"#7e7e7e","marker-size":"medium","marker-symbol":"","place":"mountain","name":"Makarapan Mountain"},"geometry":{"type":"Point","coordinates":[-58.85993957519531,3.967696000922406]}},{"type":"Feature","properties":{"marker-color":"#7e7e7e","marker-size":"medium","marker-symbol":"","water":"river","name ":"Ireng River"},"geometry":{"type":"Point","coordinates":[-59.71893310546875,3.662816293042038]}},{"type":"Feature","properties":{"marker-color":"#7e7e7e","marker-size":"medium","marker-symbol":"","water":"river","name":"Takutu River"},"geometry":{"type":"Point","coordinates":[-59.880294799804695,3.2659758815709954]}}]}